{
  "type": "FeatureCollection",
  "features": [
    {
      "type": "Feature",
      "geometry": {
        "type": "Point",
        "coordinates": [
          -77.034084142948,
          38.909671288923
        ]
      },
      "properties": {
        "phoneFormatted": "(202) 234-7336",
        "phone": "2022347336",
        "address": "1471 P St NW",
        "city": "Washington DC",
        "country": "United States",
        "postalCode": "20005",
        "state": "D.C."
      },
      "email": "email@email.com",
      "name": "Red River Valley Cowpokes"
    },
    {
      "type": "Feature",
      "geometry": {
        "type": "Point",
        "coordinates": [
          -77.049766,
          38.900772
        ]
      },
      "properties": {
        "phoneFormatted": "(202) 507-8357",
        "phone": "2025078357",
        "address": "2221 I St NW",
        "city": "Washington DC",
        "country": "United States",
        "postalCode": "20037",
        "state": "D.C."
      },
      "email": "email2@email.com",
      "name": "Texas Ten Horns"
    },
    {
      "type": "Feature",
      "geometry": {
        "type": "Point",
        "coordinates": [
          -77.043929,
          38.910525
        ]
      },
      "properties": {
        "phoneFormatted": "(202) 387-9338",
        "phone": "2023879338",
        "address": "1512 Connecticut Ave NW",
        "city": "Washington DC",
        "country": "United States",
        "postalCode": "20036",
        "state": "D.C."
      },
      "email": "email3@email.com",
      "name": "dummy club"
    }]
}
